[{"id":91908,"name":"Brauhaus Lemke","address":"Dircksenstra\u00dfe 143, Berlin, Germany","category":"restaurant","location":"Berlin","lat":52.523055,"lng":13.404575,"numReviews":30,"reviews":"http:\/\/tour-pedia.org\/api\/getReviewsByPlaceId?placeId=91908","polarity":5,"details":"http:\/\/tour-pedia.org\/api\/getPlaceDetails?id=91908"},{"id":91915,"name":"Dunkin' Donuts","address":"Potsdamer Stra\u00dfe 2, Berlin, Germany","category":"restaurant","location":"Berlin","lat":52.509542,"lng":13.374005,"numReviews":11,"reviews":"http:\/\/tour-pedia.org\/api\/getReviewsByPlaceId?placeId=91915","polarity":2,"details":"http:\/\/tour-pedia.org\/api\/getPlaceDetails?id=91915"},{"id":92015,"name":"M\u00fcggelsee Terrassen R\u00fcbezahl","address":"M\u00fcggelheimer Damm 143, Berlin, Germany","category":"restaurant","location":"Berlin","lat":52.42672,"lng":13.62876,"numReviews":8,"reviews":"http:\/\/tour-pedia.org\/api\/getReviewsByPlaceId?placeId=92015","polarity":1,"details":"http:\/\/tour-pedia.org\/api\/getPlaceDetails?id=92015"},{"id":92020,"name":"Alter Fritz","address":"Karolinenstra\u00dfe 12, Berlin, Germany","category":"restaurant","location":"Berlin","lat":52.59765,"lng":13.275327,"numReviews":7,"reviews":"http:\/\/tour-pedia.org\/api\/getReviewsByPlaceId?placeId=92020","polarity":0,"details":"http:\/\/tour-pedia.org\/api\/getPlaceDetails?id=92020"},{"id":92025,"name":"Knofel","address":"Wichertstra\u00dfe 33, Berlin, Germany","category":"restaurant","location":"Berlin","lat":52.546905,"lng":13.424514,"numReviews":11,"reviews":"http:\/\/tour-pedia.org\/api\/getReviewsByPlaceId?placeId=92025","polarity":1,"details":"http:\/\/tour-pedia.org\/api\/getPlaceDetails?id=92025"},{"id":92037,"name":"Gastst\u00e4tte Walhalla","address":"Krefelder Stra\u00dfe 6, Berlin, Germany","category":"restaurant","location":"Berlin","lat":52.524231,"lng":13.339416,"numReviews":10,"reviews":"http:\/\/tour-pedia.org\/api\/getReviewsByPlaceId?placeId=92037","polarity":2,"details":"http:\/\/tour-pedia.org\/api\/getPlaceDetails?id=92037"},{"id":92043,"name":"Hamlet","address":"Ludwigkirchstra\u00dfe 6, Berlin-Wilmersdorf, Deutschland","category":"restaurant","location":"Berlin","lat":52.498018,"lng":13.324011,"numReviews":8,"reviews":"http:\/\/tour-pedia.org\/api\/getReviewsByPlaceId?placeId=92043","polarity":3,"details":"http:\/\/tour-pedia.org\/api\/getPlaceDetails?id=92043"},{"id":92044,"name":"Juleps New York Bar & Restaurant","address":"Giesebrechtstra\u00dfe 3, Berlin, Germany","category":"restaurant","location":"Berlin","lat":52.502588,"lng":13.308739,"numReviews":14,"reviews":"http:\/\/tour-pedia.org\/api\/getReviewsByPlaceId?placeId=92044","polarity":6,"details":"http:\/\/tour-pedia.org\/api\/getPlaceDetails?id=92044"},{"id":92047,"name":"Atlantic","address":"Bergmannstra\u00dfe 100, Berlin, Germany","category":"restaurant","location":"Berlin","lat":52.489832,"lng":13.390016,"numReviews":22,"reviews":"http:\/\/tour-pedia.org\/api\/getReviewsByPlaceId?placeId=92047","polarity":4,"details":"http:\/\/tour-pedia.org\/api\/getPlaceDetails?id=92047"},{"id":92050,"name":"Aroma","address":"Hochkirchstra\u00dfe 8, Berlin, Germany","category":"restaurant","location":"Berlin","lat":52.490018,"lng":13.369422,"numReviews":14,"reviews":"http:\/\/tour-pedia.org\/api\/getReviewsByPlaceId?placeId=92050","polarity":5,"details":"http:\/\/tour-pedia.org\/api\/getPlaceDetails?id=92050"},{"id":92053,"name":"Abgedreht","address":"Karl-Marx-Allee 140, Berlin, Germany","category":"restaurant","location":"Berlin","lat":52.515742,"lng":13.452223,"numReviews":6,"reviews":"http:\/\/tour-pedia.org\/api\/getReviewsByPlaceId?placeId=92053","polarity":3,"details":"http:\/\/tour-pedia.org\/api\/getPlaceDetails?id=92053"},{"id":92058,"name":"Caf\u00e9 Hardenberg","address":"Hardenbergstra\u00dfe 10, Berlin, Germany","category":"restaurant","location":"Berlin","lat":52.509445,"lng":13.325024,"numReviews":13,"reviews":"http:\/\/tour-pedia.org\/api\/getReviewsByPlaceId?placeId=92058","polarity":1,"details":"http:\/\/tour-pedia.org\/api\/getPlaceDetails?id=92058"},{"id":92059,"name":"Caf\u00e9 Carow","address":"Mierendorffplatz 2, Berlin, Germany","category":"restaurant","location":"Berlin","lat":52.524826,"lng":13.304104,"numReviews":7,"reviews":"http:\/\/tour-pedia.org\/api\/getReviewsByPlaceId?placeId=92059","polarity":1,"details":"http:\/\/tour-pedia.org\/api\/getPlaceDetails?id=92059"},{"id":92066,"name":"Gottlob","address":"Akazienstra\u00dfe 17, Berlin, Germany","category":"restaurant","location":"Berlin","lat":52.489366,"lng":13.353506,"numReviews":18,"reviews":"http:\/\/tour-pedia.org\/api\/getReviewsByPlaceId?placeId=92066","polarity":5,"details":"http:\/\/tour-pedia.org\/api\/getPlaceDetails?id=92066"},{"id":92067,"name":"Zur Letzten Instanz","address":"Waisenstra\u00dfe 14-16, Berlin, Germany","category":"restaurant","location":"Berlin","lat":52.51735,"lng":13.413752,"numReviews":22,"reviews":"http:\/\/tour-pedia.org\/api\/getReviewsByPlaceId?placeId=92067","polarity":4,"details":"http:\/\/tour-pedia.org\/api\/getPlaceDetails?id=92067"},{"id":92070,"name":"Caf\u00e9 Rix","address":"Karl-Marx-Stra\u00dfe 141, Berlin-Neuk\u00f6lln, Deutschland","category":"restaurant","location":"Berlin","lat":52.476968,"lng":13.439169,"numReviews":11,"reviews":"http:\/\/tour-pedia.org\/api\/getReviewsByPlaceId?placeId=92070","polarity":5,"details":"http:\/\/tour-pedia.org\/api\/getPlaceDetails?id=92070"},{"id":92071,"name":"Leander","address":"Jungstra\u00dfe 29, Berlin, Germany","category":"restaurant","location":"Berlin","lat":52.511946,"lng":13.46648,"numReviews":15,"reviews":"http:\/\/tour-pedia.org\/api\/getReviewsByPlaceId?placeId=92071","polarity":3,"details":"http:\/\/tour-pedia.org\/api\/getPlaceDetails?id=92071"},{"id":92072,"name":"Caf\u00e9 Kranzler","address":"Kurf\u00fcrstendamm 18, Berlin, Germany","category":"restaurant","location":"Berlin","lat":52.50401,"lng":13.330992,"numReviews":14,"reviews":"http:\/\/tour-pedia.org\/api\/getReviewsByPlaceId?placeId=92072","polarity":3,"details":"http:\/\/tour-pedia.org\/api\/getPlaceDetails?id=92072"},{"id":92074,"name":"Schwarze Pumpe","address":"Choriner Stra\u00dfe 76, Berlin, Germany","category":"restaurant","location":"Berlin","lat":52.532463,"lng":13.406197,"numReviews":23,"reviews":"http:\/\/tour-pedia.org\/api\/getReviewsByPlaceId?placeId=92074","polarity":6,"details":"http:\/\/tour-pedia.org\/api\/getPlaceDetails?id=92074"},{"id":92075,"name":"Billy Wilder's","address":"Potsdamer Stra\u00dfe 2, Berlin, Germany","category":"restaurant","location":"Berlin","lat":52.509489,"lng":13.373312,"numReviews":19,"reviews":"http:\/\/tour-pedia.org\/api\/getReviewsByPlaceId?placeId=92075","polarity":4,"details":"http:\/\/tour-pedia.org\/api\/getPlaceDetails?id=92075"},{"id":92084,"name":"Wiener am Hagenplatz","address":"Hagenplatz 3, Berlin-Grunewald, Deutschland","category":"restaurant","location":"Berlin","lat":52.483738,"lng":13.267206,"numReviews":6,"reviews":"http:\/\/tour-pedia.org\/api\/getReviewsByPlaceId?placeId=92084","polarity":6,"details":"http:\/\/tour-pedia.org\/api\/getPlaceDetails?id=92084"},{"id":92088,"name":"Dachkammer","address":"Simon-Dach-Str. 39, Berlin, Germany","category":"restaurant","location":"Berlin","lat":52.511083,"lng":13.456957,"numReviews":19,"reviews":"http:\/\/tour-pedia.org\/api\/getReviewsByPlaceId?placeId=92088","polarity":5,"details":"http:\/\/tour-pedia.org\/api\/getPlaceDetails?id=92088"},{"id":92089,"name":"Caf\u00e9 \u00dcbersee","address":"Paul-Lincke-Ufer 44, Berlin, Germany","category":"restaurant","location":"Berlin","lat":52.496422,"lng":13.42051,"numReviews":26,"reviews":"http:\/\/tour-pedia.org\/api\/getReviewsByPlaceId?placeId=92089","polarity":4,"details":"http:\/\/tour-pedia.org\/api\/getPlaceDetails?id=92089"},{"id":92091,"name":"Kaffee Burger","address":"Torstra\u00dfe 60, Berlin, Germany","category":"restaurant","location":"Berlin","lat":52.528686,"lng":13.40851,"numReviews":25,"reviews":"http:\/\/tour-pedia.org\/api\/getReviewsByPlaceId?placeId=92091","polarity":4,"details":"http:\/\/tour-pedia.org\/api\/getPlaceDetails?id=92091"},{"id":92094,"name":"Andy's Diner Bar Inh. Andreas M\u00f6llermann","address":"Potsdamer Platz 1, Berlin, Germany","category":"restaurant","location":"Berlin","lat":52.509188,"lng":13.374675,"numReviews":16,"reviews":"http:\/\/tour-pedia.org\/api\/getReviewsByPlaceId?placeId=92094","polarity":2,"details":"http:\/\/tour-pedia.org\/api\/getPlaceDetails?id=92094"},{"id":92106,"name":"Kulturfabrik Moabit","address":"Lehrter Stra\u00dfe 35, Berlin, Germany","category":"restaurant","location":"Berlin","lat":52.53444,"lng":13.35971,"numReviews":6,"reviews":"http:\/\/tour-pedia.org\/api\/getReviewsByPlaceId?placeId=92106","polarity":4,"details":"http:\/\/tour-pedia.org\/api\/getPlaceDetails?id=92106"},{"id":92119,"name":"Pagode Thai Kitchen","address":"Bergmannstra\u00dfe 88, Berlin, Germany","category":"restaurant","location":"Berlin","lat":52.489305,"lng":13.393333,"numReviews":26,"reviews":"http:\/\/tour-pedia.org\/api\/getReviewsByPlaceId?placeId=92119","polarity":5,"details":"http:\/\/tour-pedia.org\/api\/getPlaceDetails?id=92119"},{"id":92129,"name":"VOX Restaurant","address":"Marlene-Dietrich-Platz 2, Berlin, Germany","category":"restaurant","location":"Berlin","lat":52.50813,"lng":13.37281,"numReviews":24,"reviews":"http:\/\/tour-pedia.org\/api\/getReviewsByPlaceId?placeId=92129","polarity":6,"details":"http:\/\/tour-pedia.org\/api\/getPlaceDetails?id=92129"},{"id":92130,"name":"Cafe Cinema","address":"Rosenthaler Stra\u00dfe 39, Berlin, Germany","category":"restaurant","location":"Berlin","lat":52.524184,"lng":13.402691,"numReviews":26,"reviews":"http:\/\/tour-pedia.org\/api\/getReviewsByPlaceId?placeId=92130","polarity":5,"details":"http:\/\/tour-pedia.org\/api\/getPlaceDetails?id=92130"},{"id":92133,"name":"Marietta","address":"Stargarder Stra\u00dfe 13, Berlin, Germany","category":"restaurant","location":"Berlin","lat":52.546639,"lng":13.417479,"numReviews":6,"reviews":"http:\/\/tour-pedia.org\/api\/getReviewsByPlaceId?placeId=92133","polarity":6,"details":"http:\/\/tour-pedia.org\/api\/getPlaceDetails?id=92133"},{"id":92136,"name":"Wendel","address":"Schlesische Stra\u00dfe 42, Berlin, Germany","category":"restaurant","location":"Berlin","lat":52.500555,"lng":13.443443,"numReviews":24,"reviews":"http:\/\/tour-pedia.org\/api\/getReviewsByPlaceId?placeId=92136","polarity":6,"details":"http:\/\/tour-pedia.org\/api\/getPlaceDetails?id=92136"},{"id":92141,"name":"Lass Uns Freunde Bleiben","address":"Choriner Stra\u00dfe 12, Berlin, Germany","category":"restaurant","location":"Berlin","lat":52.533067,"lng":13.407148,"numReviews":9,"reviews":"http:\/\/tour-pedia.org\/api\/getReviewsByPlaceId?placeId=92141","polarity":3,"details":"http:\/\/tour-pedia.org\/api\/getPlaceDetails?id=92141"},{"id":92458,"name":"Sushi Mylan","address":"Schl\u00fcterstra\u00dfe 15, Berlin, Germany","category":"restaurant","location":"Berlin","lat":52.508144,"lng":13.317264,"numReviews":33,"reviews":"http:\/\/tour-pedia.org\/api\/getReviewsByPlaceId?placeId=92458","polarity":4,"details":"http:\/\/tour-pedia.org\/api\/getPlaceDetails?id=92458"},{"id":92160,"name":"Clash","address":"Im Mehringhof, Gneisenaustr. 2a, Berlin, Germany","category":"restaurant","location":"Berlin","lat":52.491894,"lng":13.388514,"numReviews":18,"reviews":"http:\/\/tour-pedia.org\/api\/getReviewsByPlaceId?placeId=92160","polarity":1,"details":"http:\/\/tour-pedia.org\/api\/getPlaceDetails?id=92160"},{"id":92168,"name":"Quasimodo","address":"Kantstra\u00dfe 12A, Berlin, Germany","category":"restaurant","location":"Berlin","lat":52.505812,"lng":13.328532,"numReviews":9,"reviews":"http:\/\/tour-pedia.org\/api\/getReviewsByPlaceId?placeId=92168","polarity":4,"details":"http:\/\/tour-pedia.org\/api\/getPlaceDetails?id=92168"},{"id":92174,"name":"Chalet Suisse","address":"Clayallee 99, Berlin, Germany","category":"restaurant","location":"Berlin","lat":52.46222,"lng":13.269371,"numReviews":20,"reviews":"http:\/\/tour-pedia.org\/api\/getReviewsByPlaceId?placeId=92174","polarity":3,"details":"http:\/\/tour-pedia.org\/api\/getPlaceDetails?id=92174"},{"id":92179,"name":"La Pausa","address":"Torstra\u00dfe 125, Berlin, Germany","category":"restaurant","location":"Berlin","lat":52.529715,"lng":13.400586,"numReviews":24,"reviews":"http:\/\/tour-pedia.org\/api\/getReviewsByPlaceId?placeId=92179","polarity":8,"details":"http:\/\/tour-pedia.org\/api\/getPlaceDetails?id=92179"},{"id":92192,"name":"Umspannwerk Ost","address":"Palisadenstra\u00dfe 48, Berlin, Germany","category":"restaurant","location":"Berlin","lat":52.518298,"lng":13.439914,"numReviews":7,"reviews":"http:\/\/tour-pedia.org\/api\/getReviewsByPlaceId?placeId=92192","polarity":0,"details":"http:\/\/tour-pedia.org\/api\/getPlaceDetails?id=92192"},{"id":92405,"name":"Restaurant Charlottchen","address":"Droysenstra\u00dfe 1, Berlin, Germany","category":"restaurant","location":"Berlin","lat":52.50296,"lng":13.300535,"numReviews":6,"reviews":"http:\/\/tour-pedia.org\/api\/getReviewsByPlaceId?placeId=92405","polarity":0,"details":"http:\/\/tour-pedia.org\/api\/getPlaceDetails?id=92405"},{"id":92421,"name":"Jolesch","address":"Muskauer Stra\u00dfe 1, Berlin, Germany","category":"restaurant","location":"Berlin","lat":52.500792,"lng":13.433845,"numReviews":31,"reviews":"http:\/\/tour-pedia.org\/api\/getReviewsByPlaceId?placeId=92421","polarity":4,"details":"http:\/\/tour-pedia.org\/api\/getPlaceDetails?id=92421"},{"id":92407,"name":"Osteria No. 1","address":"Kreuzbergstra\u00dfe 71, Berlin, Germany","category":"restaurant","location":"Berlin","lat":52.489813,"lng":13.383181,"numReviews":15,"reviews":"http:\/\/tour-pedia.org\/api\/getReviewsByPlaceId?placeId=92407","polarity":4,"details":"http:\/\/tour-pedia.org\/api\/getPlaceDetails?id=92407"},{"id":92409,"name":"Caf\u00e9 Ol\u00e9","address":"Victoriastra\u00dfe 10, Berlin, Germany","category":"restaurant","location":"Berlin","lat":52.454298,"lng":13.381103,"numReviews":2,"reviews":"http:\/\/tour-pedia.org\/api\/getReviewsByPlaceId?placeId=92409","polarity":0,"details":"http:\/\/tour-pedia.org\/api\/getPlaceDetails?id=92409"},{"id":92411,"name":"Ypsilon","address":"Hauptstra\u00dfe 163, Berlin, Germany","category":"restaurant","location":"Berlin","lat":52.49094,"lng":13.361033,"numReviews":6,"reviews":"http:\/\/tour-pedia.org\/api\/getReviewsByPlaceId?placeId=92411","polarity":2,"details":"http:\/\/tour-pedia.org\/api\/getPlaceDetails?id=92411"},{"id":92412,"name":"Paris Bar","address":"Kantstra\u00dfe 152, Berlin, Germany","category":"restaurant","location":"Berlin","lat":52.505421,"lng":13.32627,"numReviews":18,"reviews":"http:\/\/tour-pedia.org\/api\/getReviewsByPlaceId?placeId=92412","polarity":5,"details":"http:\/\/tour-pedia.org\/api\/getPlaceDetails?id=92412"},{"id":92414,"name":"Restaurant Tuk-Tuk","address":"Gro\u00dfg\u00f6rschenstra\u00dfe 2, Berlin, Germany","category":"restaurant","location":"Berlin","lat":52.49122,"lng":13.361639,"numReviews":9,"reviews":"http:\/\/tour-pedia.org\/api\/getReviewsByPlaceId?placeId=92414","polarity":3,"details":"http:\/\/tour-pedia.org\/api\/getPlaceDetails?id=92414"},{"id":92415,"name":"Seoul-Kwan","address":"Schmiljanstra\u00dfe 25, Berlin, Germany","category":"restaurant","location":"Berlin","lat":52.47068,"lng":13.33059,"numReviews":5,"reviews":"http:\/\/tour-pedia.org\/api\/getReviewsByPlaceId?placeId=92415","polarity":3,"details":"http:\/\/tour-pedia.org\/api\/getPlaceDetails?id=92415"},{"id":92416,"name":"Zillemarkt","address":"Bleibtreustra\u00dfe 48a, Berlin, Germany","category":"restaurant","location":"Berlin","lat":52.504822,"lng":13.32009,"numReviews":13,"reviews":"http:\/\/tour-pedia.org\/api\/getReviewsByPlaceId?placeId=92416","polarity":3,"details":"http:\/\/tour-pedia.org\/api\/getPlaceDetails?id=92416"},{"id":92418,"name":"Hugos","address":"Budapester Stra\u00dfe 2\/14. Etage, Berlin, Germany","category":"restaurant","location":"Berlin","lat":52.507008,"lng":13.344805,"numReviews":9,"reviews":"http:\/\/tour-pedia.org\/api\/getReviewsByPlaceId?placeId=92418","polarity":4,"details":"http:\/\/tour-pedia.org\/api\/getPlaceDetails?id=92418"},{"id":92419,"name":"Amrit","address":"Oranienburger Stra\u00dfe 45, Berlin, Germany","category":"restaurant","location":"Berlin","lat":52.525904,"lng":13.38965,"numReviews":16,"reviews":"http:\/\/tour-pedia.org\/api\/getReviewsByPlaceId?placeId=92419","polarity":3,"details":"http:\/\/tour-pedia.org\/api\/getPlaceDetails?id=92419"},{"id":92422,"name":"Restaurant Sala Thai","address":"Frankfurter Allee 73, Berlin, Germany","category":"restaurant","location":"Berlin","lat":52.514548,"lng":13.468326,"numReviews":8,"reviews":"http:\/\/tour-pedia.org\/api\/getReviewsByPlaceId?placeId=92422","polarity":2,"details":"http:\/\/tour-pedia.org\/api\/getPlaceDetails?id=92422"},{"id":92424,"name":"Sarod's","address":"Friesenstra\u00dfe 22, Berlin \/ Kreuzberg, Deutschland","category":"restaurant","location":"Berlin","lat":52.487896,"lng":13.394595,"numReviews":14,"reviews":"http:\/\/tour-pedia.org\/api\/getReviewsByPlaceId?placeId=92424","polarity":5,"details":"http:\/\/tour-pedia.org\/api\/getPlaceDetails?id=92424"},{"id":92425,"name":"Weltrestaurant Markthalle","address":"P\u00fccklerstra\u00dfe 34, Berlin, Germany","category":"restaurant","location":"Berlin","lat":52.502349,"lng":13.430945,"numReviews":23,"reviews":"http:\/\/tour-pedia.org\/api\/getReviewsByPlaceId?placeId=92425","polarity":6,"details":"http:\/\/tour-pedia.org\/api\/getPlaceDetails?id=92425"},
{"id":257322,"name":"Starbucks Manufacturing Emea BV","address":"Accraweg 19, Amsterdam, Netherlands","category":"restaurant","location":"Amsterdam","lat":52.412313,"lng":4.754374,"details":"http:\/\/tour-pedia.org\/api\/getPlaceDetails?id=257322"},{"id":257323,"name":"Heineken Brouwerijen Amsterdam","address":"Scharenburg 5, Amsterdam, Netherlands","category":"restaurant","location":"Amsterdam","lat":52.396192,"lng":4.786429,"details":"http:\/\/tour-pedia.org\/api\/getPlaceDetails?id=257323"},{"id":257324,"name":"Speciaal Bakkerij Nol Bertram B.V.","address":"Jarmuiden 20, Amsterdam, Netherlands","category":"restaurant","location":"Amsterdam","lat":52.391644,"lng":4.792898,"details":"http:\/\/tour-pedia.org\/api\/getPlaceDetails?id=257324"}]